~Version Information
 VERS.                 2.0: 
 WRAP.                  NO: 
 END.                PETRA:IHS Markit
~Well Information Block
#MNEM.UNIT       Data Type    Information
#---------    -------------   ---------------------------------
 STRT.F           1089.5000:
 STOP.F           1623.5000:
 STEP.F              0.5000:
 NULL.              -999.25:
 COMP.                           : COMPANY
 FLD.                            : FIELD
 LOC.                            : LOCATION
 DATE.      21-AUG-2026          : DATE
 WELL.                           : Well Name
 LABL.      DHB-1                            : Well Label
 APIN.      DHB-1                : API Number
 UWI.       DHB-1                : Unique Well Number
~Parameter Block
#MNEM.UNIT           VALUE            Description
#---------    --------------------   ---------------------------------
~Curve Information Block
#MNEM.UNIT      API CODE      Curve Description
#---------    -------------   ---------------------------------
 DEPT.F                   00 000 00 00: Depth (MD)
 B2O3.%                   00 001 00 00: B2O3 Concentration
 B2O3_CLIPPEDGRTR5PU.%     00 002 00 00: B2O3 Concentration
 B2O3GRTR5.               00 003 00 00: B2O3GRTR5
 CA.%                     00 004 00 00: CA Concentration
 LI.%                     00 005 00 00: Li Concentration
 S.%                      00 006 00 00: S Concentration
~A        DEPT        B2O3B2O3_CLIPPEDGRTR5PU   B2O3GRTR5          CA          LI           S
# ...
      1319.500       0.100     -999.25     -999.25      23.940     230.000      15.190
      1320.000       0.100     -999.25     -999.25      23.940     230.000      15.190
      1320.500       0.100     -999.25     -999.25      23.940     230.000      15.190
      1321.000       0.100     -999.25     -999.25      23.940     230.000      15.190
      1321.500       0.540     -999.25     -999.25      21.070     270.000      14.560
      1322.000       0.540     -999.25     -999.25      21.070     270.000      14.560
      1322.500       0.540     -999.25     -999.25      21.070     270.000      14.560
      1323.000       0.540     -999.25     -999.25      21.070     270.000      14.560
      1323.500      12.870      12.870       1.000      21.880     140.000      12.260
      1324.000      12.870      12.870       1.000      21.880     140.000      12.260
      1324.500       0.250     -999.25     -999.25      12.680     280.000       9.790
      1325.000       0.250     -999.25     -999.25      12.680     280.000       9.790
      1325.500       0.250     -999.25     -999.25      12.680     280.000       9.790
      1326.000       0.250     -999.25     -999.25      12.680     280.000       9.790
      1326.500       0.250     -999.25     -999.25      12.680     280.000       9.790
      1327.000       0.250     -999.25     -999.25      12.680     280.000       9.790
      1327.500       0.250     -999.25     -999.25      12.680     280.000       9.790
      1328.000       0.250     -999.25     -999.25      12.680     280.000       9.790
      1328.500       0.250     -999.25     -999.25      12.680     280.000       9.790
      1329.000       0.130     -999.25     -999.25      21.200     300.000      14.530
      1329.500       0.130     -999.25     -999.25      21.200     300.000      14.530
      1330.000       0.130     -999.25     -999.25      21.200     300.000      14.530
      1330.500       0.120     -999.25     -999.25      22.660     270.000      17.650
      1331.000       0.110     -999.25     -999.25      22.230     285.000      13.290
      1331.500       0.110     -999.25     -999.25      22.230     285.000      13.290
      1332.000       0.110     -999.25     -999.25      22.230     285.000      13.290
      1332.500       0.110     -999.25     -999.25      22.230     285.000      13.290
      1333.000       0.110     -999.25     -999.25      22.230     285.000      13.290
      1333.500       0.110     -999.25     -999.25      23.250     265.000      14.040
      1334.000       0.110     -999.25     -999.25      23.250     265.000      14.040
      1334.500       0.110     -999.25     -999.25      23.250     265.000      14.040
      1335.000       0.110     -999.25     -999.25      23.250     265.000      14.040
      1335.500       0.110     -999.25     -999.25      23.250     265.000      14.040
      1336.000       0.120     -999.25     -999.25      19.090     240.000      13.180
      1336.500       0.120     -999.25     -999.25      19.090     240.000      13.180
      1337.000       0.120     -999.25     -999.25      19.090     240.000      13.180
      1337.500       0.120     -999.25     -999.25      19.090     240.000      13.180
      1338.000       0.120     -999.25     -999.25      19.090     240.000      13.180
      1338.500       0.650     -999.25     -999.25       9.360     295.000       6.740
      1339.000       0.650     -999.25     -999.25       9.360     295.000       6.740
      1339.500       0.650     -999.25     -999.25       9.360     295.000       6.740
      1340.000       0.650     -999.25     -999.25       9.360     295.000       6.740
      1340.500       0.650     -999.25     -999.25       9.360     295.000       6.740
      1341.000       0.200     -999.25     -999.25      10.320     270.000       7.660
      1341.500       0.200     -999.25     -999.25      10.320     270.000       7.660
      1342.000       0.200     -999.25     -999.25      10.320     270.000       7.660
      1342.500       0.200     -999.25     -999.25      10.320     270.000       7.660
      1343.000       0.200     -999.25     -999.25      10.320     270.000       7.660
      1343.500       0.200     -999.25     -999.25      10.320     270.000       7.660
      1344.000       0.200     -999.25     -999.25      10.320     270.000       7.660
      1344.500       0.200     -999.25     -999.25      10.320     270.000       7.660
      1345.000       0.200     -999.25     -999.25      10.320     270.000       7.660
      1345.500       0.200     -999.25     -999.25      10.320     270.000       7.660
      1346.000       0.200     -999.25     -999.25      10.320     270.000       7.660
      1346.500       0.440     -999.25     -999.25      18.940     220.000      14.460
      1347.000       0.440     -999.25     -999.25      18.940     220.000      14.460
      1347.500       0.440     -999.25     -999.25      18.940     220.000      14.460
      1348.000       0.440     -999.25     -999.25      18.940     220.000      14.460
      1348.500       0.440     -999.25     -999.25      18.940     220.000      14.460
      1349.000       0.440     -999.25     -999.25      18.940     220.000      14.460
      1349.500       2.330     -999.25     -999.25      25.880     110.000      19.420
      1350.000       0.530     -999.25     -999.25      10.330     240.000       7.660
      1350.500       0.530     -999.25     -999.25      10.330     240.000       7.660
      1351.000       0.530     -999.25     -999.25      10.330     240.000       7.660
      1351.500       0.530     -999.25     -999.25      10.330     240.000       7.660
      1352.000       0.530     -999.25     -999.25      10.330     240.000       7.660
      1352.500       0.530     -999.25     -999.25      10.330     240.000       7.660
      1353.000       0.530     -999.25     -999.25      10.330     240.000       7.660
      1353.500       0.530     -999.25     -999.25      10.330     240.000       7.660
      1354.000       0.530     -999.25     -999.25      10.330     240.000       7.660
      1354.500       0.530     -999.25     -999.25      10.330     240.000       7.660
      1355.000       0.530     -999.25     -999.25      10.330     240.000       7.660
      1355.500      -2.000     -999.25     -999.25       0.000      -2.000       0.000
      1356.000      -2.000     -999.25     -999.25       0.000      -2.000       0.000
      1356.500      -2.000     -999.25     -999.25       0.000      -2.000       0.000
      1357.000      -2.000     -999.25     -999.25       0.000      -2.000       0.000
      1357.500      -2.000     -999.25     -999.25       0.000      -2.000       0.000
      1358.000      -2.000     -999.25     -999.25       0.000      -2.000       0.000
      1358.500       0.170     -999.25     -999.25      16.190     185.000      11.860
      1359.000       0.170     -999.25     -999.25      16.190     185.000      11.860
      1359.500       0.170     -999.25     -999.25      16.970     205.000      13.600
      1360.000       0.170     -999.25     -999.25      16.970     205.000      13.600
      1360.500       0.170     -999.25     -999.25      16.970     205.000      13.600
      1361.000       0.170     -999.25     -999.25      16.970     205.000      13.600
      1361.500       0.460     -999.25     -999.25      20.190     290.000      15.620
      1362.000       0.460     -999.25     -999.25      20.190     290.000      15.620
      1362.500       0.460     -999.25     -999.25      20.190     290.000      15.620
      1363.000       0.460     -999.25     -999.25      20.190     290.000      15.620
      1363.500       0.460     -999.25     -999.25      20.190     290.000      15.620
      1364.000       0.460     -999.25     -999.25      20.190     290.000      15.620
      1364.500       0.460     -999.25     -999.25      20.190     290.000      15.620
      1365.000       0.460     -999.25     -999.25      20.190     290.000      15.620
