~Version Information
 VERS.                 2.0: 
 WRAP.                  NO: 
 END.                PETRA:IHS Markit
~Well Information Block
#MNEM.UNIT       Data Type    Information
#---------    -------------   ---------------------------------
 STRT.F           1089.5000:
 STOP.F           1623.5000:
 STEP.F              0.5000:
 NULL.              -999.25:
 COMP.                           : COMPANY
 FLD.                            : FIELD
 LOC.                            : LOCATION
 DATE.      21-AUG-2026          : DATE
 WELL.                           : Well Name
 LABL.      DHB-1                            : Well Label
 APIN.      DHB-1                : API Number
 UWI.       DHB-1                : Unique Well Number
~Parameter Block
#MNEM.UNIT           VALUE            Description
#---------    --------------------   ---------------------------------
~Curve Information Block
#MNEM.UNIT      API CODE      Curve Description
#---------    -------------   ---------------------------------
 DEPT.F                   00 000 00 00: Depth (MD)
 B2O3.%                   00 001 00 00: B2O3 Concentration
 B2O3_CLIPPEDGRTR5PU.%     00 002 00 00: B2O3 Concentration
 B2O3GRTR5.               00 003 00 00: B2O3GRTR5
 CA.%                     00 004 00 00: CA Concentration
 LI.%                     00 005 00 00: Li Concentration
 S.%                      00 006 00 00: S Concentration
~A        DEPT        B2O3B2O3_CLIPPEDGRTR5PU   B2O3GRTR5          CA          LI           S
# ...
      1503.500       0.130     -999.25     -999.25      20.280     150.000      14.810
      1504.000       0.140     -999.25     -999.25       5.740     175.000       3.350
      1504.500       0.140     -999.25     -999.25       5.740     175.000       3.350
      1505.000       0.140     -999.25     -999.25       5.740     175.000       3.350
      1505.500       0.140     -999.25     -999.25       5.740     175.000       3.350
      1506.000       0.140     -999.25     -999.25       5.740     175.000       3.350
      1506.500       0.140     -999.25     -999.25       5.740     175.000       3.350
      1507.000       0.140     -999.25     -999.25       5.740     175.000       3.350
      1507.500       0.140     -999.25     -999.25       5.740     175.000       3.350
      1508.000       0.130     -999.25     -999.25       2.910      85.000       0.930
      1508.500       0.130     -999.25     -999.25       2.910      85.000       0.930
      1509.000       0.130     -999.25     -999.25       2.910      85.000       0.930
      1509.500       0.130     -999.25     -999.25       2.910      85.000       0.930
      1510.000       0.130     -999.25     -999.25       2.910      85.000       0.930
      1510.500       0.130     -999.25     -999.25       2.910      85.000       0.930
      1511.000       0.130     -999.25     -999.25       2.910      85.000       0.930
      1511.500       0.130     -999.25     -999.25       2.910      85.000       0.930
      1512.000       0.130     -999.25     -999.25       2.910      85.000       0.930
      1512.500       0.130     -999.25     -999.25       2.910      85.000       0.930
      1513.000       0.130     -999.25     -999.25       2.910      85.000       0.930
      1513.500       0.130     -999.25     -999.25       2.910      85.000       0.930
      1514.000       0.130     -999.25     -999.25       2.910      85.000       0.930
      1514.500       0.130     -999.25     -999.25       2.910      85.000       0.930
      1515.000       0.130     -999.25     -999.25       2.910      85.000       0.930
      1515.500       0.150     -999.25     -999.25       4.410     145.000       2.590
      1516.000       0.150     -999.25     -999.25       4.410     145.000       2.590
      1516.500       0.150     -999.25     -999.25       4.410     145.000       2.590
      1517.000       0.150     -999.25     -999.25       4.410     145.000       2.590
      1517.500       0.150     -999.25     -999.25       4.410     145.000       2.590
      1518.000       0.150     -999.25     -999.25       4.410     145.000       2.590
      1518.500       0.150     -999.25     -999.25       4.410     145.000       2.590
      1519.000       0.150     -999.25     -999.25       4.410     145.000       2.590
      1519.500       0.150     -999.25     -999.25       4.410     145.000       2.590
      1520.000       0.150     -999.25     -999.25       4.410     145.000       2.590
      1520.500       0.150     -999.25     -999.25       4.410     145.000       2.590
      1521.000       0.120     -999.25     -999.25       2.670     125.000       1.410
      1521.500       0.120     -999.25     -999.25       2.670     125.000       1.410
      1522.000       0.120     -999.25     -999.25       2.670     125.000       1.410
      1522.500       0.120     -999.25     -999.25       2.670     125.000       1.410
      1523.000       0.120     -999.25     -999.25       2.670     125.000       1.410
      1523.500       0.120     -999.25     -999.25       2.670     125.000       1.410
      1524.000       0.120     -999.25     -999.25       2.670     125.000       1.410
      1524.500       0.110     -999.25     -999.25       5.700     120.000       3.640
      1525.000       0.110     -999.25     -999.25       5.700     120.000       3.640
      1525.500       0.110     -999.25     -999.25       5.700     120.000       3.640
      1526.000       0.110     -999.25     -999.25       5.700     120.000       3.640
      1526.500       0.110     -999.25     -999.25       5.700     120.000       3.640
      1527.000       0.110     -999.25     -999.25       5.700     120.000       3.640
      1527.500       0.110     -999.25     -999.25       5.700     120.000       3.640
      1528.000       0.110     -999.25     -999.25       5.700     120.000       3.640
      1528.500       0.110     -999.25     -999.25       3.200     125.000       1.400
      1529.000       0.110     -999.25     -999.25       3.200     125.000       1.400
      1529.500       0.110     -999.25     -999.25       3.200     125.000       1.400
      1530.000       0.110     -999.25     -999.25       3.200     125.000       1.400
      1530.500       0.110     -999.25     -999.25       3.200     125.000       1.400
      1531.000       0.110     -999.25     -999.25       3.200     125.000       1.400
      1531.500       0.110     -999.25     -999.25       3.200     125.000       1.400
      1532.000       0.110     -999.25     -999.25       3.200     125.000       1.400
      1532.500       0.110     -999.25     -999.25       3.200     125.000       1.400
      1533.000       0.110     -999.25     -999.25       3.200     125.000       1.400
      1533.500       0.110     -999.25     -999.25       3.200     125.000       1.400
      1534.000       0.120     -999.25     -999.25       4.370     165.000       3.150
      1534.500       0.120     -999.25     -999.25       4.370     165.000       3.150
      1535.000       0.120     -999.25     -999.25       4.370     165.000       3.150
      1535.500       0.120     -999.25     -999.25       4.370     165.000       3.150
      1536.000       0.120     -999.25     -999.25       4.370     165.000       3.150
      1536.500       0.120     -999.25     -999.25       4.370     165.000       3.150
      1537.000       0.120     -999.25     -999.25       4.370     165.000       3.150
      1537.500       0.120     -999.25     -999.25       4.370     165.000       3.150
      1538.000       0.120     -999.25     -999.25       4.370     165.000       3.150
      1538.500       0.100     -999.25     -999.25       3.740     155.000       1.280
      1539.000       0.100     -999.25     -999.25       3.740     155.000       1.280
      1539.500       0.110     -999.25     -999.25       5.840     170.000       3.650
      1540.000       0.110     -999.25     -999.25       5.840     170.000       3.650
      1540.500       0.110     -999.25     -999.25       5.840     170.000       3.650
      1541.000       0.110     -999.25     -999.25       5.840     170.000       3.650
      1541.500       0.110     -999.25     -999.25       5.840     170.000       3.650
      1542.000       0.110     -999.25     -999.25       5.840     170.000       3.650
      1542.500       0.130     -999.25     -999.25       7.200     150.000       5.020
      1543.000       0.130     -999.25     -999.25       7.200     150.000       5.020
      1543.500       0.130     -999.25     -999.25       7.200     150.000       5.020
      1544.000       0.130     -999.25     -999.25       7.200     150.000       5.020
      1544.500       0.130     -999.25     -999.25       7.200     150.000       5.020
      1545.000       0.130     -999.25     -999.25       7.200     150.000       5.020
      1545.500       0.130     -999.25     -999.25       7.200     150.000       5.020
      1546.000       0.120     -999.25     -999.25       5.810     205.000       5.060
      1546.500       0.120     -999.25     -999.25       5.810     205.000       5.060
      1547.000       0.120     -999.25     -999.25       5.810     205.000       5.060
      1547.500       0.110     -999.25     -999.25       7.970     185.000       4.330
      1548.000       0.120     -999.25     -999.25       6.930     195.000       5.540
      1548.500       0.120     -999.25     -999.25       6.930     195.000       5.540
      1549.000       0.110     -999.25     -999.25       7.130     320.000       5.310
