~Version Information
 VERS.                 2.0: 
 WRAP.                  NO: 
 END.                PETRA:IHS Markit
~Well Information Block
#MNEM.UNIT       Data Type    Information
#---------    -------------   ---------------------------------
 STRT.F           1089.5000:
 STOP.F           1623.5000:
 STEP.F              0.5000:
 NULL.              -999.25:
 COMP.                           : COMPANY
 FLD.                            : FIELD
 LOC.                            : LOCATION
 DATE.      21-AUG-2026          : DATE
 WELL.                           : Well Name
 LABL.      DHB-1                            : Well Label
 APIN.      DHB-1                : API Number
 UWI.       DHB-1                : Unique Well Number
~Parameter Block
#MNEM.UNIT           VALUE            Description
#---------    --------------------   ---------------------------------
~Curve Information Block
#MNEM.UNIT      API CODE      Curve Description
#---------    -------------   ---------------------------------
 DEPT.F                   00 000 00 00: Depth (MD)
 B2O3.%                   00 001 00 00: B2O3 Concentration
 B2O3_CLIPPEDGRTR5PU.%     00 002 00 00: B2O3 Concentration
 B2O3GRTR5.               00 003 00 00: B2O3GRTR5
 CA.%                     00 004 00 00: CA Concentration
 LI.%                     00 005 00 00: Li Concentration
 S.%                      00 006 00 00: S Concentration
~A        DEPT        B2O3B2O3_CLIPPEDGRTR5PU   B2O3GRTR5          CA          LI           S
# ...
      1365.500       0.460     -999.25     -999.25      20.190     290.000      15.620
      1366.000       0.460     -999.25     -999.25      20.190     290.000      15.620
      1366.500       0.460     -999.25     -999.25      20.190     290.000      15.620
      1367.000       0.460     -999.25     -999.25      20.190     290.000      15.620
      1367.500       0.460     -999.25     -999.25      20.190     290.000      15.620
      1368.000      24.850      24.850       1.000      23.060     200.000       7.490
      1368.500      10.000      10.000       1.000      19.880     406.000      13.320
      1369.000      10.000      10.000       1.000      19.880     406.000      13.320
      1369.500      10.000      10.000       1.000      19.880     406.000      13.320
      1370.000       1.400     -999.25     -999.25      17.170     560.000      14.330
      1370.500       1.400     -999.25     -999.25      17.170     560.000      14.330
      1371.000       1.400     -999.25     -999.25      17.170     560.000      14.330
      1371.500       1.400     -999.25     -999.25      17.170     560.000      14.330
      1372.000      35.260      35.260       1.000      25.550      10.000       5.180
      1372.500      35.260      35.260       1.000      25.550      10.000       5.180
      1373.000      11.810      11.810       1.000      16.750     260.000      14.880
      1373.500      11.810      11.810       1.000      16.750     260.000      14.880
      1374.000      11.810      11.810       1.000      16.750     260.000      14.880
      1374.500       8.030       8.030       1.000      18.060      10.000      20.160
      1375.000      15.680      15.680       1.000      15.660      10.000      16.180
      1375.500      15.680      15.680       1.000      15.660      10.000      16.180
      1376.000       8.440       8.440       1.000       5.160     270.000       4.240
      1376.500       8.440       8.440       1.000       5.160     270.000       4.240
      1377.000       8.440       8.440       1.000       5.160     270.000       4.240
      1377.500       8.440       8.440       1.000       5.160     270.000       4.240
      1378.000       8.440       8.440       1.000       5.160     270.000       4.240
      1378.500       0.660     -999.25     -999.25       6.950     380.000       6.140
      1379.000       0.660     -999.25     -999.25       6.950     380.000       6.140
      1379.500       0.660     -999.25     -999.25       6.950     380.000       6.140
      1380.000       0.660     -999.25     -999.25       6.950     380.000       6.140
      1380.500       0.660     -999.25     -999.25       6.950     380.000       6.140
      1381.000       0.210     -999.25     -999.25      13.560     360.000      10.340
      1381.500       0.220     -999.25     -999.25      19.500     335.000      13.260
      1382.000       0.220     -999.25     -999.25      19.500     335.000      13.260
      1382.500       2.680     -999.25     -999.25      21.100      50.000      14.850
      1383.000       2.680     -999.25     -999.25      21.100      50.000      14.850
      1383.500       2.680     -999.25     -999.25      21.100      50.000      14.850
      1384.000       2.680     -999.25     -999.25      21.100      50.000      14.850
      1384.500       2.680     -999.25     -999.25      21.100      50.000      14.850
      1385.000       2.680     -999.25     -999.25      21.100      50.000      14.850
      1385.500       2.680     -999.25     -999.25      21.100      50.000      14.850
      1386.000       2.680     -999.25     -999.25      21.100      50.000      14.850
      1386.500       2.680     -999.25     -999.25      21.100      50.000      14.850
      1387.000       9.100       9.100       1.000      19.380     360.000      15.310
      1387.500       9.100       9.100       1.000      19.380     360.000      15.310
      1388.000       9.100       9.100       1.000      19.380     360.000      15.310
      1388.500       6.480       6.480       1.000       6.880     490.000       3.550
      1389.000       6.480       6.480       1.000       6.880     490.000       3.550
      1389.500       6.480       6.480       1.000       6.880     490.000       3.550
      1390.000       6.480       6.480       1.000       6.880     490.000       3.550
      1390.500       6.480       6.480       1.000       6.880     490.000       3.550
      1391.000       6.480       6.480       1.000       6.880     490.000       3.550
      1391.500       6.480       6.480       1.000       6.880     490.000       3.550
      1392.000       6.480       6.480       1.000       6.880     490.000       3.550
      1392.500       0.760     -999.25     -999.25       3.000     170.000       1.230
      1393.000       0.760     -999.25     -999.25       3.000     170.000       1.230
      1393.500       0.760     -999.25     -999.25       3.000     170.000       1.230
      1394.000       0.760     -999.25     -999.25       3.000     170.000       1.230
      1394.500       0.760     -999.25     -999.25       3.000     170.000       1.230
      1395.000       0.760     -999.25     -999.25       3.000     170.000       1.230
      1395.500       0.760     -999.25     -999.25       3.000     170.000       1.230
      1396.000       0.760     -999.25     -999.25       3.000     170.000       1.230
      1396.500       0.760     -999.25     -999.25       3.000     170.000       1.230
      1397.000       0.760     -999.25     -999.25       3.000     170.000       1.230
      1397.500       0.760     -999.25     -999.25       3.000     170.000       1.230
      1398.000       0.760     -999.25     -999.25       3.000     170.000       1.230
      1398.500       0.220     -999.25     -999.25       4.400     240.000       3.530
      1399.000       0.220     -999.25     -999.25       4.400     240.000       3.530
      1399.500       0.220     -999.25     -999.25       4.400     240.000       3.530
      1400.000       0.220     -999.25     -999.25       4.400     240.000       3.530
      1400.500       0.210     -999.25     -999.25      10.170     350.000       5.060
      1401.000       0.210     -999.25     -999.25      10.170     350.000       5.060
      1401.500       0.210     -999.25     -999.25      10.170     350.000       5.060
      1402.000       0.210     -999.25     -999.25      10.170     350.000       5.060
      1402.500       1.170     -999.25     -999.25      22.430     280.000      15.800
      1403.000       1.170     -999.25     -999.25      22.430     280.000      15.800
      1403.500       1.170     -999.25     -999.25      22.430     280.000      15.800
      1404.000       1.170     -999.25     -999.25      22.430     280.000      15.800
      1404.500       1.170     -999.25     -999.25      22.430     280.000      15.800
      1405.000       1.170     -999.25     -999.25      22.430     280.000      15.800
      1405.500       1.170     -999.25     -999.25      22.430     280.000      15.800
      1406.000       1.170     -999.25     -999.25      22.430     280.000      15.800
      1406.500       1.170     -999.25     -999.25      22.430     280.000      15.800
      1407.000       1.170     -999.25     -999.25      22.430     280.000      15.800
      1407.500       1.170     -999.25     -999.25      22.430     280.000      15.800
      1408.000       0.680     -999.25     -999.25       9.390     440.000       6.130
      1408.500       0.680     -999.25     -999.25       9.390     440.000       6.130
      1409.000       0.680     -999.25     -999.25       9.390     440.000       6.130
      1409.500       0.680     -999.25     -999.25       9.390     440.000       6.130
      1410.000       2.880     -999.25     -999.25      26.590     140.000      19.420
      1410.500       2.880     -999.25     -999.25      26.590     140.000      19.420
      1411.000       0.410     -999.25     -999.25       5.130     295.000       4.080
