~Version Information
 VERS.                 2.0: 
 WRAP.                  NO: 
 END.                PETRA:IHS Markit
~Well Information Block
#MNEM.UNIT       Data Type    Information
#---------    -------------   ---------------------------------
 STRT.F           1089.5000:
 STOP.F           1623.5000:
 STEP.F              0.5000:
 NULL.              -999.25:
 COMP.                           : COMPANY
 FLD.                            : FIELD
 LOC.                            : LOCATION
 DATE.      21-AUG-2026          : DATE
 WELL.                           : Well Name
 LABL.      DHB-1                            : Well Label
 APIN.      DHB-1                : API Number
 UWI.       DHB-1                : Unique Well Number
~Parameter Block
#MNEM.UNIT           VALUE            Description
#---------    --------------------   ---------------------------------
~Curve Information Block
#MNEM.UNIT      API CODE      Curve Description
#---------    -------------   ---------------------------------
 DEPT.F                   00 000 00 00: Depth (MD)
 B2O3.%                   00 001 00 00: B2O3 Concentration
 B2O3_CLIPPEDGRTR5PU.%     00 002 00 00: B2O3 Concentration
 B2O3GRTR5.               00 003 00 00: B2O3GRTR5
 CA.%                     00 004 00 00: CA Concentration
 LI.%                     00 005 00 00: Li Concentration
 S.%                      00 006 00 00: S Concentration
~A        DEPT        B2O3B2O3_CLIPPEDGRTR5PU   B2O3GRTR5          CA          LI           S
# ...
      1273.500       1.110     -999.25     -999.25      19.270     498.000       9.990
      1274.000       1.110     -999.25     -999.25      19.270     498.000       9.990
      1274.500       1.110     -999.25     -999.25      19.270     498.000       9.990
      1275.000       1.110     -999.25     -999.25      19.270     498.000       9.990
      1275.500       1.110     -999.25     -999.25      19.270     498.000       9.990
      1276.000       1.110     -999.25     -999.25      19.270     498.000       9.990
      1276.500       6.620       6.620       1.000      21.720     406.000      12.160
      1277.000       6.620       6.620       1.000      21.720     406.000      12.160
      1277.500       6.620       6.620       1.000      21.720     406.000      12.160
      1278.000       6.620       6.620       1.000      21.720     406.000      12.160
      1278.500       1.460     -999.25     -999.25      17.070     498.000       9.250
      1279.000       1.460     -999.25     -999.25      17.070     498.000       9.250
      1279.500       1.460     -999.25     -999.25      17.070     498.000       9.250
      1280.000       1.460     -999.25     -999.25      17.070     498.000       9.250
      1280.500       1.460     -999.25     -999.25      17.070     498.000       9.250
      1281.000       1.460     -999.25     -999.25      17.070     498.000       9.250
      1281.500      34.970      34.970       1.000      24.250     292.000       3.550
      1282.000      34.970      34.970       1.000      24.250     292.000       3.550
      1282.500      34.970      34.970       1.000      24.250     292.000       3.550
      1283.000       4.900     -999.25     -999.25      13.050     498.000       8.720
      1283.500       4.900     -999.25     -999.25      13.050     498.000       8.720
      1284.000       4.900     -999.25     -999.25      13.050     498.000       8.720
      1284.500       1.960     -999.25     -999.25      11.230     530.000       7.290
      1285.000       1.960     -999.25     -999.25      11.230     530.000       7.290
      1285.500       1.960     -999.25     -999.25      11.230     530.000       7.290
      1286.000       1.960     -999.25     -999.25      11.230     530.000       7.290
      1286.500       1.960     -999.25     -999.25      11.230     530.000       7.290
      1287.000       1.960     -999.25     -999.25      11.230     530.000       7.290
      1287.500       1.960     -999.25     -999.25      11.230     530.000       7.290
      1288.000       1.960     -999.25     -999.25      11.230     530.000       7.290
      1288.500       0.750     -999.25     -999.25      17.180     445.000      10.710
      1289.000       0.750     -999.25     -999.25      17.180     445.000      10.710
      1289.500       0.750     -999.25     -999.25      17.180     445.000      10.710
      1290.000       0.750     -999.25     -999.25      17.180     445.000      10.710
      1290.500       0.750     -999.25     -999.25      17.180     445.000      10.710
      1291.000       1.200     -999.25     -999.25      13.210     480.000       9.370
      1291.500       1.200     -999.25     -999.25      13.210     480.000       9.370
      1292.000       1.200     -999.25     -999.25      13.210     480.000       9.370
      1292.500       1.200     -999.25     -999.25      13.210     480.000       9.370
      1293.000       1.200     -999.25     -999.25      13.210     480.000       9.370
      1293.500       1.200     -999.25     -999.25      13.210     480.000       9.370
      1294.000       1.200     -999.25     -999.25      13.210     480.000       9.370
      1294.500       1.200     -999.25     -999.25      13.210     480.000       9.370
      1295.000       1.200     -999.25     -999.25      13.210     480.000       9.370
      1295.500      20.700      20.700       1.000      22.680     145.000      10.340
      1296.000      20.700      20.700       1.000      22.680     145.000      10.340
      1296.500       1.880     -999.25     -999.25       6.820     455.000       4.340
      1297.000       1.880     -999.25     -999.25       6.820     455.000       4.340
      1297.500       1.880     -999.25     -999.25       6.820     455.000       4.340
      1298.000      12.180      12.180       1.000      17.870     360.000       6.650
      1298.500      12.180      12.180       1.000      17.870     360.000       6.650
      1299.000      12.180      12.180       1.000      17.870     360.000       6.650
      1299.500       2.110     -999.25     -999.25      10.730     575.000       1.990
      1300.000       2.110     -999.25     -999.25      10.730     575.000       1.990
      1300.500       0.990     -999.25     -999.25      20.380     350.000      17.010
      1301.000       0.990     -999.25     -999.25      20.380     350.000      17.010
      1301.500       0.160     -999.25     -999.25      16.600     475.000      14.300
      1302.000       0.160     -999.25     -999.25      16.600     475.000      14.300
      1302.500       0.160     -999.25     -999.25      16.600     475.000      14.300
      1303.000       0.160     -999.25     -999.25      16.600     475.000      14.300
      1303.500       0.270     -999.25     -999.25      22.720     355.000      15.980
      1304.000       0.270     -999.25     -999.25      22.720     355.000      15.980
      1304.500       0.270     -999.25     -999.25      22.720     355.000      15.980
      1305.000       0.110     -999.25     -999.25      21.700     300.000      16.870
      1305.500       0.110     -999.25     -999.25      22.810     380.000      14.180
      1306.000       0.110     -999.25     -999.25      22.810     380.000      14.180
      1306.500       0.110     -999.25     -999.25      22.810     380.000      14.180
      1307.000       0.120     -999.25     -999.25      21.170     410.000      13.240
      1307.500       0.120     -999.25     -999.25      21.170     410.000      13.240
      1308.000       0.120     -999.25     -999.25      21.170     410.000      13.240
      1308.500       0.120     -999.25     -999.25      21.170     410.000      13.240
      1309.000       0.120     -999.25     -999.25      21.170     410.000      13.240
      1309.500       2.510     -999.25     -999.25      17.230     425.000      11.440
      1310.000       2.320     -999.25     -999.25       8.630     295.000       5.180
      1310.500       2.320     -999.25     -999.25       8.630     295.000       5.180
      1311.000       2.320     -999.25     -999.25       8.630     295.000       5.180
      1311.500       2.320     -999.25     -999.25       8.630     295.000       5.180
      1312.000       2.320     -999.25     -999.25       8.630     295.000       5.180
      1312.500       2.320     -999.25     -999.25       8.630     295.000       5.180
      1313.000       2.320     -999.25     -999.25       8.630     295.000       5.180
      1313.500       2.320     -999.25     -999.25       8.630     295.000       5.180
      1314.000       2.320     -999.25     -999.25       8.630     295.000       5.180
      1314.500       2.320     -999.25     -999.25       8.630     295.000       5.180
      1315.000       2.320     -999.25     -999.25       8.630     295.000       5.180
      1315.500       2.320     -999.25     -999.25       8.630     295.000       5.180
      1316.000       2.320     -999.25     -999.25       8.630     295.000       5.180
      1316.500       2.320     -999.25     -999.25       8.630     295.000       5.180
      1317.000       0.160     -999.25     -999.25      16.430     525.000      10.660
      1317.500       0.140     -999.25     -999.25      13.570     375.000       8.390
      1318.000       0.140     -999.25     -999.25      19.260     410.000      11.090
      1318.500       0.140     -999.25     -999.25      19.260     410.000      11.090
      1319.000       0.100     -999.25     -999.25      23.940     230.000      15.190
