~Version Information
 VERS.                 2.0: 
 WRAP.                  NO: 
 END.                PETRA:IHS Markit
~Well Information Block
#MNEM.UNIT       Data Type    Information
#---------    -------------   ---------------------------------
 STRT.F           1089.5000:
 STOP.F           1623.5000:
 STEP.F              0.5000:
 NULL.              -999.25:
 COMP.                           : COMPANY
 FLD.                            : FIELD
 LOC.                            : LOCATION
 DATE.      21-AUG-2026          : DATE
 WELL.                           : Well Name
 LABL.      DHB-1                            : Well Label
 APIN.      DHB-1                : API Number
 UWI.       DHB-1                : Unique Well Number
~Parameter Block
#MNEM.UNIT           VALUE            Description
#---------    --------------------   ---------------------------------
~Curve Information Block
#MNEM.UNIT      API CODE      Curve Description
#---------    -------------   ---------------------------------
 DEPT.F                   00 000 00 00: Depth (MD)
 B2O3.%                   00 001 00 00: B2O3 Concentration
 B2O3_CLIPPEDGRTR5PU.%     00 002 00 00: B2O3 Concentration
 B2O3GRTR5.               00 003 00 00: B2O3GRTR5
 CA.%                     00 004 00 00: CA Concentration
 LI.%                     00 005 00 00: Li Concentration
 S.%                      00 006 00 00: S Concentration
~A        DEPT        B2O3B2O3_CLIPPEDGRTR5PU   B2O3GRTR5          CA          LI           S
# ...
      1181.500       0.160     -999.25     -999.25       3.780     330.000       1.380
      1182.000       0.160     -999.25     -999.25       3.780     330.000       1.380
      1182.500       0.160     -999.25     -999.25      13.240     310.000       8.100
      1183.000       0.160     -999.25     -999.25      13.240     310.000       8.100
      1183.500       0.160     -999.25     -999.25      13.240     310.000       8.100
      1184.000       0.160     -999.25     -999.25      13.240     310.000       8.100
      1184.500       0.160     -999.25     -999.25      13.240     310.000       8.100
      1185.000       0.160     -999.25     -999.25      13.240     310.000       8.100
      1185.500       0.160     -999.25     -999.25      13.240     310.000       8.100
      1186.000       0.160     -999.25     -999.25      13.240     310.000       8.100
      1186.500       0.160     -999.25     -999.25      13.240     310.000       8.100
      1187.000       0.160     -999.25     -999.25      13.240     310.000       8.100
      1187.500       0.160     -999.25     -999.25      13.240     310.000       8.100
      1188.000       0.160     -999.25     -999.25      13.240     310.000       8.100
      1188.500       0.160     -999.25     -999.25      13.240     310.000       8.100
      1189.000       0.160     -999.25     -999.25      13.240     310.000       8.100
      1189.500       0.160     -999.25     -999.25      13.240     310.000       8.100
      1190.000       0.160     -999.25     -999.25      13.240     310.000       8.100
      1190.500       0.070     -999.25     -999.25      24.870     150.000      15.460
      1191.000       0.070     -999.25     -999.25      24.870     150.000      15.460
      1191.500       0.070     -999.25     -999.25      24.870     150.000      15.460
      1192.000       0.070     -999.25     -999.25      24.870     150.000      15.460
      1192.500       0.110     -999.25     -999.25      21.120     245.000      13.500
      1193.000       0.110     -999.25     -999.25      21.120     245.000      13.500
      1193.500       0.110     -999.25     -999.25      21.120     245.000      13.500
      1194.000       0.110     -999.25     -999.25      21.120     245.000      13.500
      1194.500       0.110     -999.25     -999.25      21.120     245.000      13.500
      1195.000       0.110     -999.25     -999.25      21.120     245.000      13.500
      1195.500       0.110     -999.25     -999.25      21.120     245.000      13.500
      1196.000       0.110     -999.25     -999.25      21.120     245.000      13.500
      1196.500       0.110     -999.25     -999.25      21.120     245.000      13.500
      1197.000       0.110     -999.25     -999.25      21.120     245.000      13.500
      1197.500       0.110     -999.25     -999.25      21.120     245.000      13.500
      1198.000       0.110     -999.25     -999.25      21.120     245.000      13.500
      1198.500       0.110     -999.25     -999.25      21.120     245.000      13.500
      1199.000       0.110     -999.25     -999.25      21.120     245.000      13.500
      1199.500       0.110     -999.25     -999.25      21.120     245.000      13.500
      1200.000       0.110     -999.25     -999.25      21.120     245.000      13.500
      1200.500       0.110     -999.25     -999.25      21.120     245.000      13.500
      1201.000       0.110     -999.25     -999.25      21.120     245.000      13.500
      1201.500       0.150     -999.25     -999.25      16.990     295.000      12.040
      1202.000       0.150     -999.25     -999.25      16.990     295.000      12.040
      1202.500       0.150     -999.25     -999.25      16.990     295.000      12.040
      1203.000       0.860     -999.25     -999.25      20.510     260.000      13.260
      1203.500       0.860     -999.25     -999.25      20.510     260.000      13.260
      1204.000       0.860     -999.25     -999.25      20.510     260.000      13.260
      1204.500       0.860     -999.25     -999.25      20.510     260.000      13.260
      1205.000       0.860     -999.25     -999.25      20.510     260.000      13.260
      1205.500       0.860     -999.25     -999.25      20.510     260.000      13.260
      1206.000       0.860     -999.25     -999.25      20.510     260.000      13.260
      1206.500       0.860     -999.25     -999.25      20.510     260.000      13.260
      1207.000       0.860     -999.25     -999.25      20.510     260.000      13.260
      1207.500       0.860     -999.25     -999.25      20.510     260.000      13.260
      1208.000       0.860     -999.25     -999.25      20.510     260.000      13.260
      1208.500       0.860     -999.25     -999.25      20.510     260.000      13.260
      1209.000       0.860     -999.25     -999.25      20.510     260.000      13.260
      1209.500       0.860     -999.25     -999.25      20.510     260.000      13.260
      1210.000       0.860     -999.25     -999.25      20.510     260.000      13.260
      1210.500       0.860     -999.25     -999.25      20.510     260.000      13.260
      1211.000      -2.000     -999.25     -999.25      23.800      -2.000      13.950
      1211.500       9.480       9.480       1.000      25.730     236.000      14.950
      1212.000       9.480       9.480       1.000      25.730     236.000      14.950
      1212.500      -2.000     -999.25     -999.25      18.600      -2.000      12.220
      1213.000      -2.000     -999.25     -999.25      18.600      -2.000      12.220
      1213.500      -2.000     -999.25     -999.25      18.600      -2.000      12.220
      1214.000      -2.000     -999.25     -999.25      18.600      -2.000      12.220
      1214.500      -2.000     -999.25     -999.25      18.600      -2.000      12.220
      1215.000      -2.000     -999.25     -999.25      18.600      -2.000      12.220
      1215.500      -2.000     -999.25     -999.25      18.600      -2.000      12.220
      1216.000      -2.000     -999.25     -999.25      18.600      -2.000      12.220
      1216.500      -2.000     -999.25     -999.25      18.600      -2.000      12.220
      1217.000      -2.000     -999.25     -999.25      18.600      -2.000      12.220
      1217.500      -2.000     -999.25     -999.25      18.600      -2.000      12.220
      1218.000      -2.000     -999.25     -999.25      18.600      -2.000      12.220
      1218.500      -2.000     -999.25     -999.25      18.600      -2.000      12.220
      1219.000      -2.000     -999.25     -999.25      18.600      -2.000      12.220
      1219.500      -2.000     -999.25     -999.25      18.600      -2.000      12.220
      1220.000      -2.000     -999.25     -999.25      18.600      -2.000      12.220
      1220.500      -2.000     -999.25     -999.25      18.600      -2.000      12.220
      1221.000      -2.000     -999.25     -999.25      18.600      -2.000      12.220
      1221.500      -2.000     -999.25     -999.25      18.600      -2.000      12.220
      1222.000      -2.000     -999.25     -999.25      18.600      -2.000      12.220
      1222.500       0.330     -999.25     -999.25      18.850     225.000      13.410
      1223.000       0.330     -999.25     -999.25      18.850     225.000      13.410
      1223.500       0.330     -999.25     -999.25      18.850     225.000      13.410
      1224.000       0.330     -999.25     -999.25      18.850     225.000      13.410
      1224.500       2.980     -999.25     -999.25      25.770     219.000      16.080
      1225.000       2.980     -999.25     -999.25      25.770     219.000      16.080
      1225.500       2.980     -999.25     -999.25      25.770     219.000      16.080
      1226.000       2.980     -999.25     -999.25      25.770     219.000      16.080
      1226.500       3.160     -999.25     -999.25      20.470     354.000      13.010
      1227.000       3.160     -999.25     -999.25      20.470     354.000      13.010
