~Version Information
 VERS.                 2.0: 
 WRAP.                  NO: 
 END.                PETRA:IHS Markit
~Well Information Block
#MNEM.UNIT       Data Type    Information
#---------    -------------   ---------------------------------
 STRT.F           1089.5000:
 STOP.F           1623.5000:
 STEP.F              0.5000:
 NULL.              -999.25:
 COMP.                           : COMPANY
 FLD.                            : FIELD
 LOC.                            : LOCATION
 DATE.      21-AUG-2026          : DATE
 WELL.                           : Well Name
 LABL.      DHB-1                            : Well Label
 APIN.      DHB-1                : API Number
 UWI.       DHB-1                : Unique Well Number
~Parameter Block
#MNEM.UNIT           VALUE            Description
#---------    --------------------   ---------------------------------
~Curve Information Block
#MNEM.UNIT      API CODE      Curve Description
#---------    -------------   ---------------------------------
 DEPT.F                   00 000 00 00: Depth (MD)
 B2O3.%                   00 001 00 00: B2O3 Concentration
 B2O3_CLIPPEDGRTR5PU.%     00 002 00 00: B2O3 Concentration
 B2O3GRTR5.               00 003 00 00: B2O3GRTR5
 CA.%                     00 004 00 00: CA Concentration
 LI.%                     00 005 00 00: Li Concentration
 S.%                      00 006 00 00: S Concentration
~A        DEPT        B2O3B2O3_CLIPPEDGRTR5PU   B2O3GRTR5          CA          LI           S
# ...
      1457.500       1.810     -999.25     -999.25      17.030     200.000      10.180
      1458.000       1.810     -999.25     -999.25      17.030     200.000      10.180
      1458.500       2.630     -999.25     -999.25      22.930     110.000      15.420
      1459.000       2.630     -999.25     -999.25      22.930     110.000      15.420
      1459.500       2.630     -999.25     -999.25      22.930     110.000      15.420
      1460.000       2.630     -999.25     -999.25      22.930     110.000      15.420
      1460.500       6.500       6.500       1.000      11.960     110.000       5.950
      1461.000       6.500       6.500       1.000      11.960     110.000       5.950
      1461.500       6.500       6.500       1.000      11.960     110.000       5.950
      1462.000       6.500       6.500       1.000      11.960     110.000       5.950
      1462.500       0.490     -999.25     -999.25       3.910      90.000       0.310
      1463.000       0.490     -999.25     -999.25       3.910      90.000       0.310
      1463.500       0.490     -999.25     -999.25       3.910      90.000       0.310
      1464.000       0.490     -999.25     -999.25       3.910      90.000       0.310
      1464.500       0.490     -999.25     -999.25       3.910      90.000       0.310
      1465.000       0.490     -999.25     -999.25       3.910      90.000       0.310
      1465.500       0.490     -999.25     -999.25       3.910      90.000       0.310
      1466.000       0.490     -999.25     -999.25       3.910      90.000       0.310
      1466.500       0.490     -999.25     -999.25       3.910      90.000       0.310
      1467.000       0.490     -999.25     -999.25       3.910      90.000       0.310
      1467.500       0.490     -999.25     -999.25       3.910      90.000       0.310
      1468.000       0.490     -999.25     -999.25       3.910      90.000       0.310
      1468.500       0.490     -999.25     -999.25       3.910      90.000       0.310
      1469.000       0.490     -999.25     -999.25       3.910      90.000       0.310
      1469.500       0.490     -999.25     -999.25       3.910      90.000       0.310
      1470.000       0.490     -999.25     -999.25       3.910      90.000       0.310
      1470.500       0.490     -999.25     -999.25       3.910      90.000       0.310
      1471.000       0.490     -999.25     -999.25       3.910      90.000       0.310
      1471.500       0.490     -999.25     -999.25       3.910      90.000       0.310
      1472.000       0.490     -999.25     -999.25       3.910      90.000       0.310
      1472.500       0.490     -999.25     -999.25       3.910      90.000       0.310
      1473.000       0.490     -999.25     -999.25       3.910      90.000       0.310
      1473.500       0.490     -999.25     -999.25       3.910      90.000       0.310
      1474.000       0.240     -999.25     -999.25      18.260     110.000      12.870
      1474.500       0.240     -999.25     -999.25      18.260     110.000      12.870
      1475.000       0.270     -999.25     -999.25      10.410     195.000       5.730
      1475.500       0.270     -999.25     -999.25      10.410     195.000       5.730
      1476.000       0.270     -999.25     -999.25      10.410     195.000       5.730
      1476.500       0.270     -999.25     -999.25      10.410     195.000       5.730
      1477.000       0.270     -999.25     -999.25      18.930     135.000      14.410
      1477.500       0.270     -999.25     -999.25      18.930     135.000      14.410
      1478.000       0.270     -999.25     -999.25      18.930     135.000      14.410
      1478.500       0.270     -999.25     -999.25      18.930     135.000      14.410
      1479.000       0.270     -999.25     -999.25      18.930     135.000      14.410
      1479.500       0.270     -999.25     -999.25      18.930     135.000      14.410
      1480.000       0.270     -999.25     -999.25      18.930     135.000      14.410
      1480.500       0.270     -999.25     -999.25      18.930     135.000      14.410
      1481.000       0.270     -999.25     -999.25      18.930     135.000      14.410
      1481.500       0.130     -999.25     -999.25      13.940     165.000      11.540
      1482.000       0.130     -999.25     -999.25      13.940     165.000      11.540
      1482.500       0.130     -999.25     -999.25      13.940     165.000      11.540
      1483.000       0.130     -999.25     -999.25      13.940     165.000      11.540
      1483.500       0.130     -999.25     -999.25      13.940     165.000      11.540
      1484.000       0.130     -999.25     -999.25      13.940     165.000      11.540
      1484.500       0.130     -999.25     -999.25      13.940     165.000      11.540
      1485.000       0.130     -999.25     -999.25      13.940     165.000      11.540
      1485.500       0.140     -999.25     -999.25       5.690     105.000       3.330
      1486.000       0.140     -999.25     -999.25       5.690     105.000       3.330
      1486.500       0.140     -999.25     -999.25       5.690     105.000       3.330
      1487.000       0.140     -999.25     -999.25       5.690     105.000       3.330
      1487.500       0.140     -999.25     -999.25       5.690     105.000       3.330
      1488.000       0.140     -999.25     -999.25       5.690     105.000       3.330
      1488.500       0.140     -999.25     -999.25       5.690     105.000       3.330
      1489.000       0.140     -999.25     -999.25       5.690     105.000       3.330
      1489.500       0.140     -999.25     -999.25       5.690     105.000       3.330
      1490.000       0.140     -999.25     -999.25       5.690     105.000       3.330
      1490.500       0.140     -999.25     -999.25       5.690     105.000       3.330
      1491.000       0.140     -999.25     -999.25       5.690     105.000       3.330
      1491.500       0.140     -999.25     -999.25       5.690     105.000       3.330
      1492.000       0.140     -999.25     -999.25       5.690     105.000       3.330
      1492.500       0.140     -999.25     -999.25       5.690     105.000       3.330
      1493.000       0.140     -999.25     -999.25       5.690     105.000       3.330
      1493.500       0.140     -999.25     -999.25       5.690     105.000       3.330
      1494.000       0.160     -999.25     -999.25       5.810     170.000       4.480
      1494.500       0.160     -999.25     -999.25       5.810     170.000       4.480
      1495.000       0.160     -999.25     -999.25       5.810     170.000       4.480
      1495.500       0.160     -999.25     -999.25       5.810     170.000       4.480
      1496.000       0.160     -999.25     -999.25       5.810     170.000       4.480
      1496.500       0.160     -999.25     -999.25       5.810     170.000       4.480
      1497.000       0.160     -999.25     -999.25       5.810     170.000       4.480
      1497.500       0.130     -999.25     -999.25      20.280     150.000      14.810
      1498.000       0.130     -999.25     -999.25      20.280     150.000      14.810
      1498.500       0.130     -999.25     -999.25      20.280     150.000      14.810
      1499.000       0.130     -999.25     -999.25      20.280     150.000      14.810
      1499.500       0.130     -999.25     -999.25      20.280     150.000      14.810
      1500.000       0.130     -999.25     -999.25      20.280     150.000      14.810
      1500.500       0.130     -999.25     -999.25      20.280     150.000      14.810
      1501.000       0.130     -999.25     -999.25      20.280     150.000      14.810
      1501.500       0.130     -999.25     -999.25      20.280     150.000      14.810
      1502.000       0.130     -999.25     -999.25      20.280     150.000      14.810
      1502.500       0.130     -999.25     -999.25      20.280     150.000      14.810
      1503.000       0.130     -999.25     -999.25      20.280     150.000      14.810
