~Version Information
 VERS.                 2.0: 
 WRAP.                  NO: 
 END.                PETRA:IHS Markit
~Well Information Block
#MNEM.UNIT       Data Type    Information
#---------    -------------   ---------------------------------
 STRT.F           1089.5000:
 STOP.F           1623.5000:
 STEP.F              0.5000:
 NULL.              -999.25:
 COMP.                           : COMPANY
 FLD.                            : FIELD
 LOC.                            : LOCATION
 DATE.      21-AUG-2026          : DATE
 WELL.                           : Well Name
 LABL.      DHB-1                            : Well Label
 APIN.      DHB-1                : API Number
 UWI.       DHB-1                : Unique Well Number
~Parameter Block
#MNEM.UNIT           VALUE            Description
#---------    --------------------   ---------------------------------
~Curve Information Block
#MNEM.UNIT      API CODE      Curve Description
#---------    -------------   ---------------------------------
 DEPT.F                   00 000 00 00: Depth (MD)
 B2O3.%                   00 001 00 00: B2O3 Concentration
 B2O3_CLIPPEDGRTR5PU.%     00 002 00 00: B2O3 Concentration
 B2O3GRTR5.               00 003 00 00: B2O3GRTR5
 CA.%                     00 004 00 00: CA Concentration
 LI.%                     00 005 00 00: Li Concentration
 S.%                      00 006 00 00: S Concentration
~A        DEPT        B2O3B2O3_CLIPPEDGRTR5PU   B2O3GRTR5          CA          LI           S
      1089.500       0.050     -999.25     -999.25      17.560     190.000       8.400
      1090.000       0.050     -999.25     -999.25      17.560     190.000       8.400
      1090.500       0.050     -999.25     -999.25      17.560     190.000       8.400
      1091.000       0.050     -999.25     -999.25      17.560     190.000       8.400
      1091.500       0.050     -999.25     -999.25      17.560     190.000       8.400
      1092.000       0.050     -999.25     -999.25      17.560     190.000       8.400
      1092.500       0.050     -999.25     -999.25      17.560     190.000       8.400
      1093.000       0.050     -999.25     -999.25      17.560     190.000       8.400
      1093.500       0.050     -999.25     -999.25      17.560     190.000       8.400
      1094.000       0.050     -999.25     -999.25      17.560     190.000       8.400
      1094.500       0.050     -999.25     -999.25      17.560     190.000       8.400
      1095.000       0.050     -999.25     -999.25      17.560     190.000       8.400
      1095.500       0.050     -999.25     -999.25      17.560     190.000       8.400
      1096.000       0.050     -999.25     -999.25      17.560     190.000       8.400
      1096.500       0.050     -999.25     -999.25      17.560     190.000       8.400
      1097.000       0.050     -999.25     -999.25      17.560     190.000       8.400
      1097.500       0.050     -999.25     -999.25      17.560     190.000       8.400
      1098.000       0.050     -999.25     -999.25      17.560     190.000       8.400
      1098.500       0.050     -999.25     -999.25      17.560     190.000       8.400
      1099.000       0.050     -999.25     -999.25      17.560     190.000       8.400
      1099.500       0.050     -999.25     -999.25      17.560     190.000       8.400
      1100.000       0.050     -999.25     -999.25      17.560     190.000       8.400
      1100.500       0.050     -999.25     -999.25      17.560     190.000       8.400
      1101.000       0.050     -999.25     -999.25      17.560     190.000       8.400
      1101.500       0.050     -999.25     -999.25      17.560     190.000       8.400
      1102.000       0.050     -999.25     -999.25      17.560     190.000       8.400
      1102.500       0.080     -999.25     -999.25       1.480     250.000       0.520
      1103.000       0.080     -999.25     -999.25       1.480     250.000       0.520
      1103.500       0.080     -999.25     -999.25       1.480     250.000       0.520
      1104.000       0.080     -999.25     -999.25       1.480     250.000       0.520
      1104.500       0.080     -999.25     -999.25       1.480     250.000       0.520
      1105.000       0.080     -999.25     -999.25       1.480     250.000       0.520
      1105.500       0.080     -999.25     -999.25       1.480     250.000       0.520
      1106.000       0.080     -999.25     -999.25       1.480     250.000       0.520
      1106.500       0.090     -999.25     -999.25       0.360     340.000       0.000
      1107.000       0.090     -999.25     -999.25       0.360     340.000       0.000
      1107.500       0.090     -999.25     -999.25       4.790     215.000       2.590
      1108.000       0.090     -999.25     -999.25       4.790     215.000       2.590
      1108.500       0.090     -999.25     -999.25       4.790     215.000       2.590
      1109.000       0.090     -999.25     -999.25       4.790     215.000       2.590
      1109.500       0.090     -999.25     -999.25       4.790     215.000       2.590
      1110.000       0.090     -999.25     -999.25       4.790     215.000       2.590
      1110.500       0.090     -999.25     -999.25       4.790     215.000       2.590
      1111.000       0.090     -999.25     -999.25       4.790     215.000       2.590
      1111.500       0.090     -999.25     -999.25       4.790     215.000       2.590
      1112.000       0.090     -999.25     -999.25       4.790     215.000       2.590
      1112.500       0.090     -999.25     -999.25       4.790     215.000       2.590
      1113.000       0.090     -999.25     -999.25       4.790     215.000       2.590
      1113.500       0.090     -999.25     -999.25       4.790     215.000       2.590
      1114.000       0.090     -999.25     -999.25      22.500     140.000       9.980
      1114.500       0.090     -999.25     -999.25      22.500     140.000       9.980
      1115.000       0.090     -999.25     -999.25      22.500     140.000       9.980
      1115.500       0.090     -999.25     -999.25      22.500     140.000       9.980
      1116.000       0.090     -999.25     -999.25      22.500     140.000       9.980
      1116.500       0.090     -999.25     -999.25      22.500     140.000       9.980
      1117.000       0.090     -999.25     -999.25      22.500     140.000       9.980
      1117.500       0.120     -999.25     -999.25       9.590     200.000       6.760
      1118.000       0.120     -999.25     -999.25       9.590     200.000       6.760
      1118.500       0.120     -999.25     -999.25       9.590     200.000       6.760
      1119.000       0.120     -999.25     -999.25       9.590     200.000       6.760
      1119.500       0.120     -999.25     -999.25       9.590     200.000       6.760
      1120.000       0.130     -999.25     -999.25       3.400     220.000       1.710
      1120.500       0.130     -999.25     -999.25       3.400     220.000       1.710
      1121.000       0.130     -999.25     -999.25       3.400     220.000       1.710
      1121.500       0.130     -999.25     -999.25       3.400     220.000       1.710
      1122.000       0.130     -999.25     -999.25       3.400     220.000       1.710
      1122.500       0.130     -999.25     -999.25       3.400     220.000       1.710
      1123.000       0.120     -999.25     -999.25      11.510     175.000       7.800
      1123.500       0.120     -999.25     -999.25      11.510     175.000       7.800
      1124.000       0.120     -999.25     -999.25      11.510     175.000       7.800
      1124.500       0.120     -999.25     -999.25      11.510     175.000       7.800
      1125.000       0.120     -999.25     -999.25      11.510     175.000       7.800
      1125.500       0.120     -999.25     -999.25      11.510     175.000       7.800
      1126.000       0.120     -999.25     -999.25      11.510     175.000       7.800
      1126.500       0.120     -999.25     -999.25      11.510     175.000       7.800
      1127.000       0.120     -999.25     -999.25      11.510     175.000       7.800
      1127.500       0.120     -999.25     -999.25      11.510     175.000       7.800
      1128.000       0.120     -999.25     -999.25      11.510     175.000       7.800
      1128.500       0.100     -999.25     -999.25       3.390     225.000       1.600
      1129.000       0.100     -999.25     -999.25       3.390     225.000       1.600
      1129.500       0.100     -999.25     -999.25       3.390     225.000       1.600
      1130.000       0.100     -999.25     -999.25       3.390     225.000       1.600
      1130.500       0.100     -999.25     -999.25       3.390     225.000       1.600
      1131.000       0.100     -999.25     -999.25       3.390     225.000       1.600
      1131.500       0.100     -999.25     -999.25       3.390     225.000       1.600
      1132.000       0.100     -999.25     -999.25       3.390     225.000       1.600
      1132.500       0.130     -999.25     -999.25       6.070     195.000       3.760
      1133.000       0.130     -999.25     -999.25       6.070     195.000       3.760
      1133.500       0.130     -999.25     -999.25       6.070     195.000       3.760
      1134.000       0.130     -999.25     -999.25       6.070     195.000       3.760
      1134.500       0.130     -999.25     -999.25       6.070     195.000       3.760
      1135.000       0.130     -999.25     -999.25       6.070     195.000       3.760
