~Version Information
 VERS.                 2.0: 
 WRAP.                  NO: 
 END.                PETRA:IHS Markit
~Well Information Block
#MNEM.UNIT       Data Type    Information
#---------    -------------   ---------------------------------
 STRT.F           1089.5000:
 STOP.F           1623.5000:
 STEP.F              0.5000:
 NULL.              -999.25:
 COMP.                           : COMPANY
 FLD.                            : FIELD
 LOC.                            : LOCATION
 DATE.      21-AUG-2026          : DATE
 WELL.                           : Well Name
 LABL.      DHB-1                            : Well Label
 APIN.      DHB-1                : API Number
 UWI.       DHB-1                : Unique Well Number
~Parameter Block
#MNEM.UNIT           VALUE            Description
#---------    --------------------   ---------------------------------
~Curve Information Block
#MNEM.UNIT      API CODE      Curve Description
#---------    -------------   ---------------------------------
 DEPT.F                   00 000 00 00: Depth (MD)
 B2O3.%                   00 001 00 00: B2O3 Concentration
 B2O3_CLIPPEDGRTR5PU.%     00 002 00 00: B2O3 Concentration
 B2O3GRTR5.               00 003 00 00: B2O3GRTR5
 CA.%                     00 004 00 00: CA Concentration
 LI.%                     00 005 00 00: Li Concentration
 S.%                      00 006 00 00: S Concentration
~A        DEPT        B2O3B2O3_CLIPPEDGRTR5PU   B2O3GRTR5          CA          LI           S
# ...
      1411.500       0.410     -999.25     -999.25       5.130     295.000       4.080
      1412.000       0.410     -999.25     -999.25       5.130     295.000       4.080
      1412.500       0.410     -999.25     -999.25       5.130     295.000       4.080
      1413.000       0.410     -999.25     -999.25       5.130     295.000       4.080
      1413.500       0.410     -999.25     -999.25       5.130     295.000       4.080
      1414.000       0.410     -999.25     -999.25       5.130     295.000       4.080
      1414.500       0.410     -999.25     -999.25       5.130     295.000       4.080
      1415.000       1.010     -999.25     -999.25      15.300      80.000      12.060
      1415.500       1.010     -999.25     -999.25      15.300      80.000      12.060
      1416.000       1.010     -999.25     -999.25      15.300      80.000      12.060
      1416.500       1.010     -999.25     -999.25      15.300      80.000      12.060
      1417.000       0.690     -999.25     -999.25       3.370     150.000       1.480
      1417.500       0.690     -999.25     -999.25       3.370     150.000       1.480
      1418.000       0.690     -999.25     -999.25       3.370     150.000       1.480
      1418.500       0.690     -999.25     -999.25       3.370     150.000       1.480
      1419.000       0.690     -999.25     -999.25       3.370     150.000       1.480
      1419.500       0.690     -999.25     -999.25       3.370     150.000       1.480
      1420.000       0.690     -999.25     -999.25       3.370     150.000       1.480
      1420.500       0.410     -999.25     -999.25       7.860     220.000       6.030
      1421.000       0.410     -999.25     -999.25       7.860     220.000       6.030
      1421.500       0.410     -999.25     -999.25       7.860     220.000       6.030
      1422.000       4.750     -999.25     -999.25      22.820     130.000      16.310
      1422.500       4.750     -999.25     -999.25      22.820     130.000      16.310
      1423.000       4.750     -999.25     -999.25      22.820     130.000      16.310
      1423.500       4.750     -999.25     -999.25      22.820     130.000      16.310
      1424.000       4.750     -999.25     -999.25      22.820     130.000      16.310
      1424.500       4.750     -999.25     -999.25      22.820     130.000      16.310
      1425.000       4.750     -999.25     -999.25      22.820     130.000      16.310
      1425.500       4.750     -999.25     -999.25      22.820     130.000      16.310
      1426.000       4.750     -999.25     -999.25      22.820     130.000      16.310
      1426.500       4.750     -999.25     -999.25      22.820     130.000      16.310
      1427.000       4.750     -999.25     -999.25      22.820     130.000      16.310
      1427.500       4.750     -999.25     -999.25      22.820     130.000      16.310
      1428.000       4.750     -999.25     -999.25      22.820     130.000      16.310
      1428.500       4.750     -999.25     -999.25      22.820     130.000      16.310
      1429.000       4.750     -999.25     -999.25      22.820     130.000      16.310
      1429.500       4.750     -999.25     -999.25      22.820     130.000      16.310
      1430.000       5.380       5.380       1.000       5.470     340.000       2.850
      1430.500       5.380       5.380       1.000       5.470     340.000       2.850
      1431.000       5.380       5.380       1.000       5.470     340.000       2.850
      1431.500       5.380       5.380       1.000       5.470     340.000       2.850
      1432.000       5.380       5.380       1.000       5.470     340.000       2.850
      1432.500       5.380       5.380       1.000       5.470     340.000       2.850
      1433.000       5.380       5.380       1.000       5.470     340.000       2.850
      1433.500       1.700     -999.25     -999.25       5.450     320.000       3.740
      1434.000       1.700     -999.25     -999.25       5.450     320.000       3.740
      1434.500       1.700     -999.25     -999.25       5.450     320.000       3.740
      1435.000       1.700     -999.25     -999.25       5.450     320.000       3.740
      1435.500       1.700     -999.25     -999.25       5.450     320.000       3.740
      1436.000       1.700     -999.25     -999.25       5.450     320.000       3.740
      1436.500       1.700     -999.25     -999.25       5.450     320.000       3.740
      1437.000       1.700     -999.25     -999.25       5.450     320.000       3.740
      1437.500       1.700     -999.25     -999.25       5.450     320.000       3.740
      1438.000       1.700     -999.25     -999.25       5.450     320.000       3.740
      1438.500       1.700     -999.25     -999.25       5.450     320.000       3.740
      1439.000       1.700     -999.25     -999.25       5.450     320.000       3.740
      1439.500       1.700     -999.25     -999.25       5.450     320.000       3.740
      1440.000       2.590     -999.25     -999.25       7.520     340.000       6.600
      1440.500       2.590     -999.25     -999.25       7.520     340.000       6.600
      1441.000       2.590     -999.25     -999.25       7.520     340.000       6.600
      1441.500       2.590     -999.25     -999.25       7.520     340.000       6.600
      1442.000       2.590     -999.25     -999.25       7.520     340.000       6.600
      1442.500       2.590     -999.25     -999.25       7.520     340.000       6.600
      1443.000       2.590     -999.25     -999.25       7.520     340.000       6.600
      1443.500       1.400     -999.25     -999.25       8.820     320.000       9.290
      1444.000      13.780      13.780       1.000      24.880      30.000      13.570
      1444.500      13.780      13.780       1.000      24.880      30.000      13.570
      1445.000      13.780      13.780       1.000      24.880      30.000      13.570
      1445.500      13.780      13.780       1.000      24.880      30.000      13.570
      1446.000       6.980       6.980       1.000      16.020     170.000       9.410
      1446.500      14.770      14.770       1.000      26.700      10.000      11.880
      1447.000      16.050      16.050       1.000      11.680     100.000       4.960
      1447.500      16.050      16.050       1.000      11.680     100.000       4.960
      1448.000       0.810     -999.25     -999.25       3.760     100.000       1.070
      1448.500       0.810     -999.25     -999.25       3.760     100.000       1.070
      1449.000       0.810     -999.25     -999.25       3.760     100.000       1.070
      1449.500       0.810     -999.25     -999.25       3.760     100.000       1.070
      1450.000       0.810     -999.25     -999.25       3.760     100.000       1.070
      1450.500       0.810     -999.25     -999.25       3.760     100.000       1.070
      1451.000       0.810     -999.25     -999.25       3.760     100.000       1.070
      1451.500       0.810     -999.25     -999.25       3.760     100.000       1.070
      1452.000       0.810     -999.25     -999.25       3.760     100.000       1.070
      1452.500       0.810     -999.25     -999.25       3.760     100.000       1.070
      1453.000       0.810     -999.25     -999.25       3.760     100.000       1.070
      1453.500       0.810     -999.25     -999.25       3.760     100.000       1.070
      1454.000       0.810     -999.25     -999.25       3.760     100.000       1.070
      1454.500       1.840     -999.25     -999.25      17.440     165.000      12.010
      1455.000       1.840     -999.25     -999.25      17.440     165.000      12.010
      1455.500       1.840     -999.25     -999.25      17.440     165.000      12.010
      1456.000       1.840     -999.25     -999.25      17.440     165.000      12.010
      1456.500       1.810     -999.25     -999.25      17.030     200.000      10.180
      1457.000       1.810     -999.25     -999.25      17.030     200.000      10.180
