~Version Information
 VERS.                 2.0: 
 WRAP.                  NO: 
 END.                PETRA:IHS Markit
~Well Information Block
#MNEM.UNIT       Data Type    Information
#---------    -------------   ---------------------------------
 STRT.F           1089.5000:
 STOP.F           1623.5000:
 STEP.F              0.5000:
 NULL.              -999.25:
 COMP.                           : COMPANY
 FLD.                            : FIELD
 LOC.                            : LOCATION
 DATE.      21-AUG-2026          : DATE
 WELL.                           : Well Name
 LABL.      DHB-1                            : Well Label
 APIN.      DHB-1                : API Number
 UWI.       DHB-1                : Unique Well Number
~Parameter Block
#MNEM.UNIT           VALUE            Description
#---------    --------------------   ---------------------------------
~Curve Information Block
#MNEM.UNIT      API CODE      Curve Description
#---------    -------------   ---------------------------------
 DEPT.F                   00 000 00 00: Depth (MD)
 B2O3.%                   00 001 00 00: B2O3 Concentration
 B2O3_CLIPPEDGRTR5PU.%     00 002 00 00: B2O3 Concentration
 B2O3GRTR5.               00 003 00 00: B2O3GRTR5
 CA.%                     00 004 00 00: CA Concentration
 LI.%                     00 005 00 00: Li Concentration
 S.%                      00 006 00 00: S Concentration
~A        DEPT        B2O3B2O3_CLIPPEDGRTR5PU   B2O3GRTR5          CA          LI           S
# ...
      1135.500       0.130     -999.25     -999.25       6.070     195.000       3.760
      1136.000       0.130     -999.25     -999.25       6.070     195.000       3.760
      1136.500       0.130     -999.25     -999.25       6.070     195.000       3.760
      1137.000       0.130     -999.25     -999.25       6.070     195.000       3.760
      1137.500       0.130     -999.25     -999.25       6.070     195.000       3.760
      1138.000       0.130     -999.25     -999.25       6.070     195.000       3.760
      1138.500       0.130     -999.25     -999.25       6.070     195.000       3.760
      1139.000       0.130     -999.25     -999.25       6.070     195.000       3.760
      1139.500       0.130     -999.25     -999.25       6.070     195.000       3.760
      1140.000       0.130     -999.25     -999.25       6.070     195.000       3.760
      1140.500       0.130     -999.25     -999.25       6.070     195.000       3.760
      1141.000       0.130     -999.25     -999.25       6.070     195.000       3.760
      1141.500       0.070     -999.25     -999.25      23.050      75.000      13.490
      1142.000       0.070     -999.25     -999.25      23.050      75.000      13.490
      1142.500       0.070     -999.25     -999.25      23.050      75.000      13.490
      1143.000       0.070     -999.25     -999.25      23.050      75.000      13.490
      1143.500       0.070     -999.25     -999.25      23.050      75.000      13.490
      1144.000       0.070     -999.25     -999.25      23.050      75.000      13.490
      1144.500       0.070     -999.25     -999.25      23.050      75.000      13.490
      1145.000       0.070     -999.25     -999.25      23.050      75.000      13.490
      1145.500       0.100     -999.25     -999.25      16.550     255.000       9.770
      1146.000       0.100     -999.25     -999.25      16.550     255.000       9.770
      1146.500       0.100     -999.25     -999.25      16.550     255.000       9.770
      1147.000       0.100     -999.25     -999.25      16.550     255.000       9.770
      1147.500       0.100     -999.25     -999.25      16.550     255.000       9.770
      1148.000       0.100     -999.25     -999.25      16.550     255.000       9.770
      1148.500       0.100     -999.25     -999.25      16.550     255.000       9.770
      1149.000       0.100     -999.25     -999.25      16.550     255.000       9.770
      1149.500       0.100     -999.25     -999.25      16.550     255.000       9.770
      1150.000       0.100     -999.25     -999.25      16.550     255.000       9.770
      1150.500       0.100     -999.25     -999.25      16.550     255.000       9.770
      1151.000       0.100     -999.25     -999.25      16.550     255.000       9.770
      1151.500       0.100     -999.25     -999.25      16.550     255.000       9.770
      1152.000       0.100     -999.25     -999.25      16.550     255.000       9.770
      1152.500       0.110     -999.25     -999.25       7.680     185.000       5.820
      1153.000       0.110     -999.25     -999.25       7.680     185.000       5.820
      1153.500       0.110     -999.25     -999.25       7.680     185.000       5.820
      1154.000       0.110     -999.25     -999.25       7.680     185.000       5.820
      1154.500       0.110     -999.25     -999.25       7.680     185.000       5.820
      1155.000       0.110     -999.25     -999.25       7.680     185.000       5.820
      1155.500       0.110     -999.25     -999.25       7.680     185.000       5.820
      1156.000       0.110     -999.25     -999.25       7.680     185.000       5.820
      1156.500       0.110     -999.25     -999.25       7.680     185.000       5.820
      1157.000       0.110     -999.25     -999.25       7.680     185.000       5.820
      1157.500       0.110     -999.25     -999.25       7.680     185.000       5.820
      1158.000       0.090     -999.25     -999.25      16.010     155.000      10.320
      1158.500       0.090     -999.25     -999.25      16.010     155.000      10.320
      1159.000       0.090     -999.25     -999.25      16.010     155.000      10.320
      1159.500       0.090     -999.25     -999.25      16.010     155.000      10.320
      1160.000       0.090     -999.25     -999.25      16.010     155.000      10.320
      1160.500       0.090     -999.25     -999.25      16.010     155.000      10.320
      1161.000       0.090     -999.25     -999.25      16.010     155.000      10.320
      1161.500       0.090     -999.25     -999.25      16.010     155.000      10.320
      1162.000       0.090     -999.25     -999.25      16.010     155.000      10.320
      1162.500       0.120     -999.25     -999.25       4.160     200.000       0.340
      1163.000       0.120     -999.25     -999.25       4.160     200.000       0.340
      1163.500       0.120     -999.25     -999.25       4.160     200.000       0.340
      1164.000       0.120     -999.25     -999.25       4.160     200.000       0.340
      1164.500       0.120     -999.25     -999.25       4.160     200.000       0.340
      1165.000       0.120     -999.25     -999.25       4.160     200.000       0.340
      1165.500       0.120     -999.25     -999.25       4.160     200.000       0.340
      1166.000       0.120     -999.25     -999.25       4.160     200.000       0.340
      1166.500       0.120     -999.25     -999.25       4.160     200.000       0.340
      1167.000       0.120     -999.25     -999.25       4.160     200.000       0.340
      1167.500       0.120     -999.25     -999.25       4.160     200.000       0.340
      1168.000       0.120     -999.25     -999.25       4.160     200.000       0.340
      1168.500       0.120     -999.25     -999.25       4.160     200.000       0.340
      1169.000       0.120     -999.25     -999.25       4.160     200.000       0.340
      1169.500       0.070     -999.25     -999.25      21.360     190.000      11.200
      1170.000       0.070     -999.25     -999.25      21.360     190.000      11.200
      1170.500       0.070     -999.25     -999.25      21.360     190.000      11.200
      1171.000       0.070     -999.25     -999.25      21.360     190.000      11.200
      1171.500       0.070     -999.25     -999.25      21.360     190.000      11.200
      1172.000       0.070     -999.25     -999.25      21.360     190.000      11.200
      1172.500       0.070     -999.25     -999.25      21.360     190.000      11.200
      1173.000       0.070     -999.25     -999.25      21.360     190.000      11.200
      1173.500       0.070     -999.25     -999.25      21.360     190.000      11.200
      1174.000       0.070     -999.25     -999.25      21.360     190.000      11.200
      1174.500       0.160     -999.25     -999.25       3.780     330.000       1.380
      1175.000       0.160     -999.25     -999.25       3.780     330.000       1.380
      1175.500       0.160     -999.25     -999.25       3.780     330.000       1.380
      1176.000       0.160     -999.25     -999.25       3.780     330.000       1.380
      1176.500       0.160     -999.25     -999.25       3.780     330.000       1.380
      1177.000       0.160     -999.25     -999.25       3.780     330.000       1.380
      1177.500       0.160     -999.25     -999.25       3.780     330.000       1.380
      1178.000       0.160     -999.25     -999.25       3.780     330.000       1.380
      1178.500       0.160     -999.25     -999.25       3.780     330.000       1.380
      1179.000       0.160     -999.25     -999.25       3.780     330.000       1.380
      1179.500       0.160     -999.25     -999.25       3.780     330.000       1.380
      1180.000       0.160     -999.25     -999.25       3.780     330.000       1.380
      1180.500       0.160     -999.25     -999.25       3.780     330.000       1.380
      1181.000       0.160     -999.25     -999.25       3.780     330.000       1.380
