~Version Information
 VERS.                 2.0: 
 WRAP.                  NO: 
 END.                PETRA:IHS Markit
~Well Information Block
#MNEM.UNIT       Data Type    Information
#---------    -------------   ---------------------------------
 STRT.F           1089.5000:
 STOP.F           1623.5000:
 STEP.F              0.5000:
 NULL.              -999.25:
 COMP.                           : COMPANY
 FLD.                            : FIELD
 LOC.                            : LOCATION
 DATE.      21-AUG-2026          : DATE
 WELL.                           : Well Name
 LABL.      DHB-1                            : Well Label
 APIN.      DHB-1                : API Number
 UWI.       DHB-1                : Unique Well Number
~Parameter Block
#MNEM.UNIT           VALUE            Description
#---------    --------------------   ---------------------------------
~Curve Information Block
#MNEM.UNIT      API CODE      Curve Description
#---------    -------------   ---------------------------------
 DEPT.F                   00 000 00 00: Depth (MD)
 B2O3.%                   00 001 00 00: B2O3 Concentration
 B2O3_CLIPPEDGRTR5PU.%     00 002 00 00: B2O3 Concentration
 B2O3GRTR5.               00 003 00 00: B2O3GRTR5
 CA.%                     00 004 00 00: CA Concentration
 LI.%                     00 005 00 00: Li Concentration
 S.%                      00 006 00 00: S Concentration
~A        DEPT        B2O3B2O3_CLIPPEDGRTR5PU   B2O3GRTR5          CA          LI           S
# ...
      1549.500       0.110     -999.25     -999.25       7.130     320.000       5.310
      1550.000       0.110     -999.25     -999.25       7.130     320.000       5.310
      1550.500       0.110     -999.25     -999.25       7.130     320.000       5.310
      1551.000       0.110     -999.25     -999.25       7.130     320.000       5.310
      1551.500       0.110     -999.25     -999.25       7.130     320.000       5.310
      1552.000       0.140     -999.25     -999.25       3.440     225.000       3.200
      1552.500       0.140     -999.25     -999.25       3.440     225.000       3.200
      1553.000       0.140     -999.25     -999.25       3.440     225.000       3.200
      1553.500       0.140     -999.25     -999.25       3.440     225.000       3.200
      1554.000       0.140     -999.25     -999.25       3.440     225.000       3.200
      1554.500       0.140     -999.25     -999.25       3.440     225.000       3.200
      1555.000       0.140     -999.25     -999.25       3.440     225.000       3.200
      1555.500       0.140     -999.25     -999.25       3.440     225.000       3.200
      1556.000       0.140     -999.25     -999.25       3.440     225.000       3.200
      1556.500       0.140     -999.25     -999.25       3.440     225.000       3.200
      1557.000       0.120     -999.25     -999.25       3.730     230.000       2.890
      1557.500       0.120     -999.25     -999.25       6.460     235.000       3.760
      1558.000       0.120     -999.25     -999.25       6.460     235.000       3.760
      1558.500       0.120     -999.25     -999.25       6.460     235.000       3.760
      1559.000       0.100     -999.25     -999.25       6.030     235.000       2.770
      1559.500       0.100     -999.25     -999.25       6.030     235.000       2.770
      1560.000       0.100     -999.25     -999.25       6.030     235.000       2.770
      1560.500       0.100     -999.25     -999.25       6.030     235.000       2.770
      1561.000       0.100     -999.25     -999.25       6.030     235.000       2.770
      1561.500       0.100     -999.25     -999.25       6.030     235.000       2.770
      1562.000       0.100     -999.25     -999.25       6.030     235.000       2.770
      1562.500       0.100     -999.25     -999.25       6.030     235.000       2.770
      1563.000       0.120     -999.25     -999.25       3.850     230.000       1.580
      1563.500       0.120     -999.25     -999.25       3.850     230.000       1.580
      1564.000       0.120     -999.25     -999.25       3.850     230.000       1.580
      1564.500       0.120     -999.25     -999.25       2.380     250.000       0.110
      1565.000       0.120     -999.25     -999.25       2.380     250.000       0.110
      1565.500       0.120     -999.25     -999.25       2.380     250.000       0.110
      1566.000       0.120     -999.25     -999.25       2.380     250.000       0.110
      1566.500       0.120     -999.25     -999.25       2.380     250.000       0.110
      1567.000       0.120     -999.25     -999.25       2.380     250.000       0.110
      1567.500       0.120     -999.25     -999.25       2.380     250.000       0.110
      1568.000       0.120     -999.25     -999.25       2.380     250.000       0.110
      1568.500       0.120     -999.25     -999.25       2.380     250.000       0.110
      1569.000       0.120     -999.25     -999.25       2.380     250.000       0.110
      1569.500       0.120     -999.25     -999.25       2.380     250.000       0.110
      1570.000       0.120     -999.25     -999.25       2.380     250.000       0.110
      1570.500       0.120     -999.25     -999.25       2.380     250.000       0.110
      1571.000       0.180     -999.25     -999.25       2.650     265.000       0.220
      1571.500       0.180     -999.25     -999.25       2.650     265.000       0.220
      1572.000       0.180     -999.25     -999.25       2.650     265.000       0.220
      1572.500       0.180     -999.25     -999.25       2.650     265.000       0.220
      1573.000       0.180     -999.25     -999.25       2.650     265.000       0.220
      1573.500       0.090     -999.25     -999.25       5.690     170.000       0.370
      1574.000       0.090     -999.25     -999.25       5.690     170.000       0.370
      1574.500       0.090     -999.25     -999.25       5.690     170.000       0.370
      1575.000       0.090     -999.25     -999.25       5.690     170.000       0.370
      1575.500       0.090     -999.25     -999.25       5.690     170.000       0.370
      1576.000       0.090     -999.25     -999.25       5.690     170.000       0.370
      1576.500       0.090     -999.25     -999.25       5.690     170.000       0.370
      1577.000       0.090     -999.25     -999.25       5.690     170.000       0.370
      1577.500       0.090     -999.25     -999.25       5.690     170.000       0.370
      1578.000       0.090     -999.25     -999.25       5.690     170.000       0.370
      1578.500       0.090     -999.25     -999.25       5.690     170.000       0.370
      1579.000       0.090     -999.25     -999.25       5.690     170.000       0.370
      1579.500       0.090     -999.25     -999.25       5.690     170.000       0.370
      1580.000       0.090     -999.25     -999.25       5.690     170.000       0.370
      1580.500       0.090     -999.25     -999.25       5.690     170.000       0.370
      1581.000       0.090     -999.25     -999.25       5.690     170.000       0.370
      1581.500       0.120     -999.25     -999.25       2.290     165.000       0.000
      1582.000       0.120     -999.25     -999.25       2.290     165.000       0.000
      1582.500       0.120     -999.25     -999.25       2.290     165.000       0.000
      1583.000       0.120     -999.25     -999.25       2.290     165.000       0.000
      1583.500       0.120     -999.25     -999.25       2.290     165.000       0.000
      1584.000       0.120     -999.25     -999.25       2.290     165.000       0.000
      1584.500       0.190     -999.25     -999.25       1.240     170.000       0.000
      1585.000       0.190     -999.25     -999.25       1.240     170.000       0.000
      1585.500       0.130     -999.25     -999.25       2.400     190.000       1.610
      1586.000       0.130     -999.25     -999.25       2.400     190.000       1.610
      1586.500       0.090     -999.25     -999.25       4.010     230.000       0.090
      1587.000       0.090     -999.25     -999.25       4.010     230.000       0.090
      1587.500       0.090     -999.25     -999.25       4.010     230.000       0.090
      1588.000       0.090     -999.25     -999.25       4.010     230.000       0.090
      1588.500       0.090     -999.25     -999.25       4.010     230.000       0.090
      1589.000       0.100     -999.25     -999.25       2.610     265.000       0.000
      1589.500       0.100     -999.25     -999.25       2.610     265.000       0.000
      1590.000       0.110     -999.25     -999.25       2.250     265.000       0.280
      1590.500       0.100     -999.25     -999.25       5.860     275.000       1.190
      1591.000       0.100     -999.25     -999.25       5.860     275.000       1.190
      1591.500       0.100     -999.25     -999.25       5.860     275.000       1.190
      1592.000       0.100     -999.25     -999.25       5.860     275.000       1.190
      1592.500       0.100     -999.25     -999.25       5.860     275.000       1.190
      1593.000       0.100     -999.25     -999.25       5.860     275.000       1.190
      1593.500       0.100     -999.25     -999.25       5.860     275.000       1.190
      1594.000       0.090     -999.25     -999.25       6.230     250.000       3.830
      1594.500       0.090     -999.25     -999.25       6.230     250.000       3.830
      1595.000       0.090     -999.25     -999.25       6.230     250.000       3.830
