~Version Information
 VERS.                 2.0: 
 WRAP.                  NO: 
 END.                PETRA:IHS Markit
~Well Information Block
#MNEM.UNIT       Data Type    Information
#---------    -------------   ---------------------------------
 STRT.F           1089.5000:
 STOP.F           1623.5000:
 STEP.F              0.5000:
 NULL.              -999.25:
 COMP.                           : COMPANY
 FLD.                            : FIELD
 LOC.                            : LOCATION
 DATE.      21-AUG-2026          : DATE
 WELL.                           : Well Name
 LABL.      DHB-1                            : Well Label
 APIN.      DHB-1                : API Number
 UWI.       DHB-1                : Unique Well Number
~Parameter Block
#MNEM.UNIT           VALUE            Description
#---------    --------------------   ---------------------------------
~Curve Information Block
#MNEM.UNIT      API CODE      Curve Description
#---------    -------------   ---------------------------------
 DEPT.F                   00 000 00 00: Depth (MD)
 B2O3.%                   00 001 00 00: B2O3 Concentration
 B2O3_CLIPPEDGRTR5PU.%     00 002 00 00: B2O3 Concentration
 B2O3GRTR5.               00 003 00 00: B2O3GRTR5
 CA.%                     00 004 00 00: CA Concentration
 LI.%                     00 005 00 00: Li Concentration
 S.%                      00 006 00 00: S Concentration
~A        DEPT        B2O3B2O3_CLIPPEDGRTR5PU   B2O3GRTR5          CA          LI           S
# ...
      1595.500       0.090     -999.25     -999.25       6.230     250.000       3.830
      1596.000       0.090     -999.25     -999.25       6.230     250.000       3.830
      1596.500       0.090     -999.25     -999.25       6.230     250.000       3.830
      1597.000       0.090     -999.25     -999.25       6.230     250.000       3.830
      1597.500       0.090     -999.25     -999.25       6.230     250.000       3.830
      1598.000       0.070     -999.25     -999.25       4.220     240.000       0.300
      1598.500       0.070     -999.25     -999.25       4.220     240.000       0.300
      1599.000       0.070     -999.25     -999.25       4.220     240.000       0.300
      1599.500       0.070     -999.25     -999.25       4.220     240.000       0.300
      1600.000       0.070     -999.25     -999.25       4.220     240.000       0.300
      1600.500       0.070     -999.25     -999.25       4.220     240.000       0.300
      1601.000       0.070     -999.25     -999.25       4.220     240.000       0.300
      1601.500       0.070     -999.25     -999.25       4.220     240.000       0.300
      1602.000       0.070     -999.25     -999.25       4.220     240.000       0.300
      1602.500       0.070     -999.25     -999.25       4.220     240.000       0.300
      1603.000       0.070     -999.25     -999.25       4.220     240.000       0.300
      1603.500       0.070     -999.25     -999.25       4.220     240.000       0.300
      1604.000       0.070     -999.25     -999.25       4.220     240.000       0.300
      1604.500       0.070     -999.25     -999.25       4.220     240.000       0.300
      1605.000       0.080     -999.25     -999.25       8.160     220.000       3.020
      1605.500       0.080     -999.25     -999.25       8.160     220.000       3.020
      1606.000       0.080     -999.25     -999.25       8.160     220.000       3.020
      1606.500       0.080     -999.25     -999.25       8.160     220.000       3.020
      1607.000       0.060     -999.25     -999.25       8.080     230.000       0.000
      1607.500       0.060     -999.25     -999.25       8.080     230.000       0.000
      1608.000       0.060     -999.25     -999.25       8.080     230.000       0.000
      1608.500       0.060     -999.25     -999.25       8.080     230.000       0.000
      1609.000       0.060     -999.25     -999.25       8.080     230.000       0.000
      1609.500       0.070     -999.25     -999.25       3.310     155.000       0.000
      1610.000       0.070     -999.25     -999.25       3.310     155.000       0.000
      1610.500       0.070     -999.25     -999.25       3.310     155.000       0.000
      1611.000       0.070     -999.25     -999.25       3.310     155.000       0.000
      1611.500       0.070     -999.25     -999.25       3.310     155.000       0.000
      1612.000       0.070     -999.25     -999.25       4.850     175.000       0.000
      1612.500       0.070     -999.25     -999.25       4.850     175.000       0.000
      1613.000       0.070     -999.25     -999.25       4.850     175.000       0.000
      1613.500       0.070     -999.25     -999.25       4.850     175.000       0.000
      1614.000       0.070     -999.25     -999.25       4.850     175.000       0.000
      1614.500       0.070     -999.25     -999.25       4.850     175.000       0.000
      1615.000       0.070     -999.25     -999.25       4.850     175.000       0.000
      1615.500       0.070     -999.25     -999.25       4.850     175.000       0.000
      1616.000       0.070     -999.25     -999.25       4.850     175.000       0.000
      1616.500       0.070     -999.25     -999.25       4.850     175.000       0.000
      1617.000       0.070     -999.25     -999.25       4.850     175.000       0.000
      1617.500       0.070     -999.25     -999.25       4.850     175.000       0.000
      1618.000       0.070     -999.25     -999.25       4.850     175.000       0.000
      1618.500       0.070     -999.25     -999.25       4.850     175.000       0.000
      1619.000       0.070     -999.25     -999.25       4.850     175.000       0.000
      1619.500       0.070     -999.25     -999.25       4.850     175.000       0.000
      1620.000       0.070     -999.25     -999.25       4.850     175.000       0.000
      1620.500       0.070     -999.25     -999.25       4.850     175.000       0.000
      1621.000       0.070     -999.25     -999.25       4.850     175.000       0.000
      1621.500       0.070     -999.25     -999.25       4.850     175.000       0.000
      1622.000       0.070     -999.25     -999.25       4.850     175.000       0.000
      1622.500       0.070     -999.25     -999.25       4.850     175.000       0.000
      1623.000       0.070     -999.25     -999.25       4.850     175.000       0.000
      1623.500       0.070     -999.25     -999.25       4.850     175.000       0.000
