~Version Information
 VERS.                 2.0: 
 WRAP.                  NO: 
 END.                PETRA:IHS Markit
~Well Information Block
#MNEM.UNIT       Data Type    Information
#---------    -------------   ---------------------------------
 STRT.F           1089.5000:
 STOP.F           1623.5000:
 STEP.F              0.5000:
 NULL.              -999.25:
 COMP.                           : COMPANY
 FLD.                            : FIELD
 LOC.                            : LOCATION
 DATE.      21-AUG-2026          : DATE
 WELL.                           : Well Name
 LABL.      DHB-1                            : Well Label
 APIN.      DHB-1                : API Number
 UWI.       DHB-1                : Unique Well Number
~Parameter Block
#MNEM.UNIT           VALUE            Description
#---------    --------------------   ---------------------------------
~Curve Information Block
#MNEM.UNIT      API CODE      Curve Description
#---------    -------------   ---------------------------------
 DEPT.F                   00 000 00 00: Depth (MD)
 B2O3.%                   00 001 00 00: B2O3 Concentration
 B2O3_CLIPPEDGRTR5PU.%     00 002 00 00: B2O3 Concentration
 B2O3GRTR5.               00 003 00 00: B2O3GRTR5
 CA.%                     00 004 00 00: CA Concentration
 LI.%                     00 005 00 00: Li Concentration
 S.%                      00 006 00 00: S Concentration
~A        DEPT        B2O3B2O3_CLIPPEDGRTR5PU   B2O3GRTR5          CA          LI           S
# ...
      1227.500       3.160     -999.25     -999.25      20.470     354.000      13.010
      1228.000       3.160     -999.25     -999.25      20.470     354.000      13.010
      1228.500      12.280      12.280       1.000      23.780     233.000      12.900
      1229.000      12.280      12.280       1.000      23.780     233.000      12.900
      1229.500      12.280      12.280       1.000      23.780     233.000      12.900
      1230.000       0.740     -999.25     -999.25      17.540     466.000      11.790
      1230.500       0.740     -999.25     -999.25      17.540     466.000      11.790
      1231.000       0.740     -999.25     -999.25      27.300     228.000      16.620
      1231.500       0.740     -999.25     -999.25      27.300     228.000      16.620
      1232.000       7.430       7.430       1.000      23.220     286.000      15.320
      1232.500       7.430       7.430       1.000      23.220     286.000      15.320
      1233.000       7.430       7.430       1.000      23.220     286.000      15.320
      1233.500       7.430       7.430       1.000      23.220     286.000      15.320
      1234.000       7.430       7.430       1.000      23.220     286.000      15.320
      1234.500       5.420       5.420       1.000      19.430     357.000      13.260
      1235.000       5.420       5.420       1.000      19.430     357.000      13.260
      1235.500       4.640     -999.25     -999.25      20.750     389.000      13.270
      1236.000       4.640     -999.25     -999.25      20.750     389.000      13.270
      1236.500       4.640     -999.25     -999.25      20.750     389.000      13.270
      1237.000       4.640     -999.25     -999.25      20.750     389.000      13.270
      1237.500       1.180     -999.25     -999.25      22.100     466.000      13.950
      1238.000       1.180     -999.25     -999.25      22.100     466.000      13.950
      1238.500       2.420     -999.25     -999.25      18.730     444.000      11.630
      1239.000       2.420     -999.25     -999.25      18.730     444.000      11.630
      1239.500       2.420     -999.25     -999.25      18.730     444.000      11.630
      1240.000       2.420     -999.25     -999.25      18.730     444.000      11.630
      1240.500       0.630     -999.25     -999.25      20.820     402.000      13.830
      1241.000       0.630     -999.25     -999.25      20.820     402.000      13.830
      1241.500       0.630     -999.25     -999.25      20.820     402.000      13.830
      1242.000       0.630     -999.25     -999.25      20.820     402.000      13.830
      1242.500       0.630     -999.25     -999.25      20.820     402.000      13.830
      1243.000       0.630     -999.25     -999.25      20.820     402.000      13.830
      1243.500       0.660     -999.25     -999.25      24.890     348.000      16.900
      1244.000       1.100     -999.25     -999.25      21.810     427.000      14.670
      1244.500       1.100     -999.25     -999.25      21.810     427.000      14.670
      1245.000       1.100     -999.25     -999.25      21.810     427.000      14.670
      1245.500       1.100     -999.25     -999.25      21.810     427.000      14.670
      1246.000       1.100     -999.25     -999.25      21.810     427.000      14.670
      1246.500       0.870     -999.25     -999.25      21.040     345.000      15.560
      1247.000       0.870     -999.25     -999.25      21.040     345.000      15.560
      1247.500       0.870     -999.25     -999.25      21.040     345.000      15.560
      1248.000      25.870      25.870       1.000       0.000      95.000       0.000
      1248.500       1.670     -999.25     -999.25       0.000     330.000       0.000
      1249.000      40.440      40.440       1.000       0.000      70.000       0.000
      1249.500       4.160     -999.25     -999.25       0.000     260.000       0.000
      1250.000       4.160     -999.25     -999.25       0.000     260.000       0.000
      1250.500       4.160     -999.25     -999.25       0.000     260.000       0.000
      1251.000       4.160     -999.25     -999.25       0.000     260.000       0.000
      1251.500       4.160     -999.25     -999.25       0.000     260.000       0.000
      1252.000       1.500     -999.25     -999.25      23.360     300.000      14.970
      1252.500       1.500     -999.25     -999.25      23.360     300.000      14.970
      1253.000       1.500     -999.25     -999.25      23.360     300.000      14.970
      1253.500      16.940      16.940       1.000      25.730     243.000      11.780
      1254.000      16.940      16.940       1.000      25.730     243.000      11.780
      1254.500      16.940      16.940       1.000      25.730     243.000      11.780
      1255.000      16.940      16.940       1.000      25.730     243.000      11.780
      1255.500      16.940      16.940       1.000      25.730     243.000      11.780
      1256.000       1.480     -999.25     -999.25      23.760     357.000      16.980
      1256.500       1.480     -999.25     -999.25      23.760     357.000      16.980
      1257.000      31.710      31.710       1.000      25.650     130.000       7.190
      1257.500      31.710      31.710       1.000      25.650     130.000       7.190
      1258.000       3.910     -999.25     -999.25      18.810     453.000      12.210
      1258.500       3.910     -999.25     -999.25      18.810     453.000      12.210
      1259.000       3.910     -999.25     -999.25      18.810     453.000      12.210
      1259.500       3.910     -999.25     -999.25      18.810     453.000      12.210
      1260.000       7.590       7.590       1.000      22.540     343.000      12.990
      1260.500       7.590       7.590       1.000      22.540     343.000      12.990
      1261.000       7.590       7.590       1.000      22.540     343.000      12.990
      1261.500       7.590       7.590       1.000      22.540     343.000      12.990
      1262.000       7.590       7.590       1.000      22.540     343.000      12.990
      1262.500      26.230      26.230       1.000      24.450     275.000       9.480
      1263.000      26.230      26.230       1.000      24.450     275.000       9.480
      1263.500      26.230      26.230       1.000      24.450     275.000       9.480
      1264.000       3.130     -999.25     -999.25      16.570     466.000      11.890
      1264.500       3.130     -999.25     -999.25      16.570     466.000      11.890
      1265.000       3.130     -999.25     -999.25      16.570     466.000      11.890
      1265.500       0.980     -999.25     -999.25      20.220     413.000      13.140
      1266.000      18.770      18.770       1.000      23.200     292.000       9.920
      1266.500      18.770      18.770       1.000      23.200     292.000       9.920
      1267.000      18.770      18.770       1.000      23.200     292.000       9.920
      1267.500       4.200     -999.25     -999.25      23.220     327.000      15.090
      1268.000       4.200     -999.25     -999.25      23.220     327.000      15.090
      1268.500       0.620     -999.25     -999.25      20.130     498.000       9.480
      1269.000       0.620     -999.25     -999.25      20.130     498.000       9.480
      1269.500       0.620     -999.25     -999.25      20.130     498.000       9.480
      1270.000       0.780     -999.25     -999.25      22.280     466.000      11.330
      1270.500       0.780     -999.25     -999.25      22.280     466.000      11.330
      1271.000       0.780     -999.25     -999.25      22.280     466.000      11.330
      1271.500       0.780     -999.25     -999.25      22.280     466.000      11.330
      1272.000       0.780     -999.25     -999.25      22.280     466.000      11.330
      1272.500       1.110     -999.25     -999.25      19.270     498.000       9.990
      1273.000       1.110     -999.25     -999.25      19.270     498.000       9.990
